customer_id,city,province,address,zip_code,latitude,longitude,datetime_updated,datetime_created
4,Caroline,Alberta,5136 49 Ave,T0M 0M0,52.092893,-114.744173,2023-06-11T05:01:36.709241,2023-01-19T10:24:48.792942
13,Churchill Falls,Newfoundland and Labrador,4 Ossokmanuan St,A0R 1A0,53.531586,-64.007095,2023-02-02T07:11:55.472910,2023-01-19T10:24:48.792942
50,Arborg,Manitoba,609 Mill Ave,R0C 0A0,50.905802,-97.205665,2023-09-24T14:55:19.081921,2023-01-19T10:24:48.792942
71,Sparta,Ontario,6123 County Rd 36,N0L 2H0,42.701967,-81.078967,2023-09-24T14:55:19.081921,2023-01-19T10:24:48.792942
76,Orangeville,Ontario,23 Townline,L9W 1T5,43.916431,-80.087895,2023-09-24T14:55:19.081921,2023-01-19T10:24:48.792942
83,Montague,Prince Edward Island,625 Princess Dr,C0A 1R0,46.165093,-62.656735,2023-09-24T14:55:19.081921,2023-01-19T10:24:48.792942
93,Kelowna,British Columbia,1299 Oswell Dr,V1P 1L7,49.871923,-119.351413,2023-09-24T14:55:19.081921,2023-01-19T10:24:48.792942
97,Brackendale,British Columbia,41101 Government Rd,V0N 1H0,49.753455,-123.141342,2023-09-24T14:55:19.081921,2023-01-19T10:24:48.792942
